[
    {
        "name": "Начальная общеобразова-тельная школа при Посольстве РФ в Канберре",
        "person": "",
        "email": "emb@canberraschool.com",
        "website": "www.canberraschool.com",
        "social media": "",
        "address": "78 Canberra avenue",
        "suburb": "Griffith",
        "postcode": "2603",
        "state": "ACT",
        "details": "Согласно российским федеральным стандартам для 1-4 классов; Функционирует учебно-консультацион-ный пункт для учащихся 5-11 классов.",
        "hours": "Пн.-пт.: 15:00-18:00",
        "full": "1.  Начальная общеобразова-тельная школа при Посольстве РФ в Канберре  Почтовый адрес: 78 Canberra avenue, Griffith, ACT, 2603 Эл.почта: emb@canberraschool.com Веб-сайт: www.canberraschool.com      Согласно российским федеральным стандартам для 1-4 классов; Функционирует учебно-консультацион-ный пункт для учащихся 5-11 классов. Пн.-пт.: 15:00-18:00"
    },
    {
        "name": "Школа при церковном приходе Св. Иоанна Предтечи/ Russian Orthodox Church School",
        "person": "Протоиерей о.Александр (Морозов)",
        "email": "russianschoolcanberra@yahoo.com.au",
        "website": "www.stjohnthebaptist.org.au/ru/school",
        "social media": "",
        "address": "1 Matina St",
        "suburb": "Narrabundah",
        "postcode": "2604",
        "state": "ACT",
        "details": "Закон Божий, введение в русскую литературу и искусство, русский язык, пение, танцы, театр, изобразительное искусство.",
        "hours": "Сб.: 9.30–13.30",
        "full": "2.   Школа при церковном приходе Св. Иоанна Предтечи/ Russian Orthodox Church School  Почтовый адрес: 1 Matina St, Narrabundah, ACT, 2604 Эл.почта: russianschoolcanberra@yahoo.com.au Веб-сайт: www.stjohnthebaptist.org.au/ru/school  Протоиерей о.Александр (Морозов)  Закон Божий, введение в русскую литературу и искусство, русский язык, пение, танцы, театр, изобразительное искусство.  Сб.: 9.30–13.30"
    },
    {
        "name": "Русская школа «Пушкинский Лицей»/ Russian Language School «Pushkin Lyceum»",
        "person": "Макарова Марина Павловна",
        "email": "pushkinlyceum@live.com",
        "website": "www.pushkinlyceum.org.au",
        "social media": "",
        "address": "PO Box 224",
        "suburb": "Ormond",
        "postcode": "3204",
        "state": "VIC",
        "details": "Русский язык, риторика, русская литература, история, природоведение, география, студии танцев, драмы, изобразительного и декоративного искусства.",
        "hours": "Вс.: 8.30-16.10",
        "full": "3. Русская школа «Пушкинский Лицей»/ Russian Language School «Pushkin Lyceum»  Почтовый адрес: PO Box 224 Ormond, VIC 3204 Эл.почта: pushkinlyceum@live.com Веб-сайт: www.pushkinlyceum.org.au   Макарова Марина Павловна  Русский язык, риторика, русская литература, история, природоведение, география, студии танцев, драмы, изобразительного и декоративного искусства. Вс.: 8.30-16.10"
    },
    {
        "name": "Церковно-приходская школа при Богородице-Успенском приходе в Данденонге Victorian Deanery Russian School Dandenong Parish Campus",
        "person": "Митрофорный протоиерей о.Михаил (Протопопов)",
        "email": "fr.michael@russianwelfare.org.au",
        "website": "www.russianchurchin",
        "social media": "",
        "address": "52 Fenton court",
        "suburb": "Keysborough",
        "postcode": "3175",
        "state": "VIC",
        "details": "Русский язык, литература, закон Божий, интегрированное преподавание истории и географии, музыка",
        "hours": "Сб.: 9.30-13.30",
        "full": "4. Церковно-приходская школа при Богородице-Успенском приходе в Данденонге Victorian Deanery Russian School Dandenong Parish Campus  Почтовый адрес: 52 Fenton court, Keysborough,VIC, 3175 Эл.почта: fr.michael@russianwelfare.org.au Веб-сайт: www.russianchurchin dandenong.com.au/ru/shkola  Митрофорный протоиерей о.Михаил (Протопопов) Русский язык, литература, закон Божий, интегрированное преподавание истории и географии, музыка Сб.: 9.30-13.30"
    },
    {
        "name": "Школа русской общины в Малверне/ Malvern Russian Community School",
        "person": "Дьячевский Петр",
        "email": "info@mrcs.org.au",
        "website": "www.mrcs.org.au",
        "social media": "",
        "address": "65A Tooronga rd",
        "suburb": "Malvern East",
        "postcode": "3145",
        "state": "VIC",
        "details": "Русский язык, русская литература, математика. Подготовка к сдаче австралийского экзамена по русскому языку.",
        "hours": "Чт.: 18.00-21.15",
        "full": "5. Школа русской общины в Малверне/ Malvern Russian Community School  Почтовый адрес: 65A Tooronga rd, Malvern East, VIC, 3145 Эл.почта: info@mrcs.org.au Веб-сайт: www.mrcs.org.au   Дьячевский Петр  Русский язык, русская литература, математика. Подготовка к сдаче австралийского экзамена по русскому языку. Чт.: 18.00-21.15"
    },
    {
        "name": "Russian Language Community School “Rodnik”",
        "person": "Коен Анна Григорьевна",
        "email": "gennadyvilkhov@optusnet.com.au",
        "website": "",
        "social media": "",
        "address": "40 Grattam Street",
        "suburb": "Prahran",
        "postcode": "3181",
        "state": "VIC",
        "details": "Русский язык, математика, шахматы, рукоделие",
        "hours": "Сб.: 10.30-13.30",
        "full": "6. Russian Language Community School “Rodnik”  Почтовый адрес: 40 Grattam Street, Prahran, VIC, 3181 Эл.почта: gennadyvilkhov@optusnet.com.au   Коен Анна Григорьевна  Русский язык, математика, шахматы, рукоделие Сб.: 10.30-13.30"
    },
    {
        "name": "Русская приходская школа при Соборе Покрова Пресвятой Богородицы в Брансвике",
        "person": "Протоиерей о.Николай (Карыпов)",
        "email": "",
        "website": "",
        "social media": "",
        "address": "1-7 Albion Street",
        "suburb": "Brunswick East",
        "postcode": "3057",
        "state": "VIC",
        "details": "Русский язык, литература, закон Божий, интегрированное преподавание истории и географии, музыка",
        "hours": "Сб.: 9.30-13.30",
        "full": "7. Русская приходская школа при Соборе Покрова Пресвятой Богородицы в Брансвике  Почтовый адрес: 1-7 Albion Street, Brunswick East, VIC 3057  Протоиерей о.Николай (Карыпов) Русский язык, литература, закон Божий, интегрированное преподавание истории и географии, музыка Сб.: 9.30-13.30"
    },
    {
        "name": "Школа при церкви Свято-Скорбященского прихода в Джилонге",
        "person": "Протоиерей о.Симеон (Кичаков)",
        "email": "milich.marina.m@edumail.vic.gov.au",
        "website": "www.geelongparish.org.au/",
        "social media": "",
        "address": "17 Yaraan Street",
        "suburb": "Bell Park",
        "postcode": "3215",
        "state": "VIC",
        "details": "Русский язык, история России, закон Божий.",
        "hours": "Сб.: 9.00-12.00",
        "full": "8. Школа при церкви Свято-Скорбященского прихода в Джилонге  Почтовый адрес: 17 Yaraan Street, Bell Park, Geelong, VIC, 3215 Эл.почта: milich.marina.m@edumail.vic.gov.au Веб-сайт: http://www.geelongparish.org.au/ pricerkovnaya-shkola  Протоиерей о.Симеон (Кичаков) Русский язык, история России, закон Божий. Сб.: 9.00-12.00"
    },
    {
        "name": "Воскресная школа «Лидер»/ «Lider» school",
        "person": "Марина Простакова",
        "email": "lidersundayschool@yahoo.com",
        "website": "www.liderschool.com",
        "social media": "",
        "address": "40 Gnarwyn Road",
        "suburb": "Carnegie",
        "postcode": "3163",
        "state": "VIC",
        "details": "Русский язык и литература, математика, история, рисование, естествознание, химия. Кружки шахмат, рисования, лепки, танцев, студия вокала, кукольный театр.",
        "hours": "Вс.: 9.30-15.00",
        "full": "9.  Воскресная школа «Лидер»/ «Lider» school   Почтовый адрес: 40 Gnarwyn Road, Carnegie, VIC, 3163 Эл.почта: lidersundayschool@yahoo.com Веб-сайт: www.liderschool.com  Марина Простакова Русский язык и литература, математика, история, рисование, естествознание, химия. Кружки шахмат, рисования, лепки, танцев, студия вокала, кукольный театр. Вс.: 9.30-15.00"
    },
    {
        "name": "Еврейская русская воскресная школа",
        "person": "Равин Элозор Горелик",
        "email": "",
        "website": "www.chabadoncarlisle.com.au",
        "social media": "",
        "address": "366 Carlisle St",
        "suburb": "Balaclava",
        "postcode": "3183",
        "state": "VIC",
        "details": "Русский язык, литература, математика, еврейская культура, искусство",
        "hours": "Вс.: 10.00-13.00",
        "full": "10. Еврейская русская воскресная школа  Почтовый адрес: 366 Carlisle St, Balaclava, VIC, 3183 Веб-сайт: www.chabadoncarlisle.com.au  Равин Элозор Горелик Русский язык, литература, математика, еврейская культура, искусство Вс.: 10.00-13.00"
    },
    {
        "name": "Русская воскресная школа в Мурабине",
        "person": "Инна Зайцева",
        "email": "zotkinaolga@hotmail.com",
        "website": "",
        "social media": "",
        "address": "15 Mayfield St",
        "suburb": "St. Kilda East",
        "postcode": "3183",
        "state": "VIC",
        "details": "Русский язык, литература, математика.",
        "hours": "Вс.: 10.00-13.00",
        "full": "11. Русская воскресная школа в Мурабине  Почтовый адрес: 15 Mayfield St, St. Kilda East, 3183 Эл.почта: zotkinaolga@hotmail.com  Инна Зайцева Русский язык, литература, математика. Вс.: 10.00-13.00"
    },
    {
        "name": "Русский образовательный центр на юго-востоке Мельбурна \"OREH\" (Open Russian Educational Hub)",
        "person": "Вера Иванова",
        "email": "oreh.inc@gmail.com",
        "website": "www.facebook.com/OpenRussianEducationalHub/",
        "social media": "https://www.facebook.com/OpenRussianEducationalHub/",
        "address": "38 Valetta Street",
        "suburb": "Carrum",
        "postcode": "3199",
        "state": "VIC",
        "details": "Русский язык для билингвов, РКИ для детей и взрослых, Раннее Развитие, Драма, Математиика, Шахматы, География, Физика, Химия, Биология, ИЗО, МХК, Рукоделие, История, Йога и др.",
        "hours": "Онлайн и офлайн – по  воскресеньям с 9:30 до 14:00",
        "full": "12. Русский образовательный центр на юго-востоке Мельбурна \"OREH\" (Open Russian Educational Hub)   Почтовый адрес: 25 Mulgra Street, Frankston South, VIC 3199 Фактический адрес: 38 Valetta Street, Carrum, VIC 3197 Телефон: 0416 779 448 Эл.почта: oreh.inc@gmail.com Веб-сайт: https://oreh.com.au/ Фейсбук: https://www.facebook.com/OpenRussianEducationalHub/ Вера Иванова  Русский язык для билингвов, РКИ для детей и взрослых, Раннее Развитие, Драма, Математиика, Шахматы, География, Физика, Химия, Биология, ИЗО, МХК, Рукоделие, История, Йога и др. Онлайн и офлайн – по  воскресеньям с 9:30 до 14:00"
    },
    {
        "name": "Русский образовательно-культурный центр Западной Австралии/ WA Russian Education Cultural Centre Inc. (WARECC)",
        "person": "Наталья (Симонова) Бак",
        "email": "",
        "website": "www.warussianschool.com.au",
        "social media": "",
        "address": "410 Railway Parade",
        "suburb": "Beckenham",
        "postcode": "6107",
        "state": "WA",
        "details": "Русский язык, чтение, литература, история, русский фольклор, перевод, рисование, прикладное искусство, логопед.",
        "hours": "Cб.: 10.00-14.00",
        "full": "13.  Русский образовательно-культурный центр Западной Австралии/ WA Russian Education Cultural Centre Inc. (WARECC)   Почтовый адрес: 410 Railway Parade, Beckenham, WA, 6107 Веб-сайт: www.warussianschool.com.au  Наталья (Симонова) Бак Русский язык, чтение, литература, история, русский фольклор, перевод, рисование, прикладное искусство, логопед.  Cб.: 10.00-14.00"
    },
    {
        "name": "Русский –Культурно Образовательный Центр Западной Австралии «Мозаика»",
        "person": "Ирина Якименко",
        "email": "",
        "website": "www.mosaicawa.com",
        "social media": "",
        "address": "15 Triumph Approach",
        "suburb": "Aubin Grove",
        "postcode": "6164",
        "state": "WA",
        "details": "Танцы, музыка, русский язык.",
        "hours": "Cб.: 10.00-14.00",
        "full": "14. Русский –Культурно Образовательный Центр Западной Австралии «Мозаика»  Почтовый адрес: 15 Triumph Approach, Aubin Grove, WA, 6164 Веб-сайт: www.mosaicawa.com  Ирина Якименко Танцы, музыка, русский язык.  Cб.: 10.00-14.00"
    },
    {
        "name": "Церковно-приходская школа Свято-Петропавловского Прихода в Перте",
        "person": "Протоиерей о.Сергей (Окунев)",
        "email": "seokunev@yahoo.com.au",
        "website": "",
        "social media": "",
        "address": "161 Whatley Crs.",
        "suburb": "Bayswater",
        "postcode": "6053",
        "state": "WA",
        "details": "Закон Божий, азы православия, русский язык, чтение, развитие речи с логопедом",
        "hours": "Вс.: 13.40-16.00",
        "full": "15. Церковно-приходская школа Свято-Петропавловского Прихода в Перте  Почтовый адрес: 161 Whatley Crs., Bayswater, WA, 6053 Эл.почта: seokunev@yahoo.com.au  Протоиерей о.Сергей (Окунев) Закон Божий, азы православия, русский язык, чтение, развитие речи с логопедом Вс.: 13.40-16.00"
    },
    {
        "name": "Русская школа имени А.С.Пушкина при Ассоциации «Давай поговорим»/ Pushkin Russian School",
        "person": "Владимир Кантер",
        "email": "vfkant@gmail.com",
        "website": "www.russianschoolinadelaide.org",
        "social media": "",
        "address": "5 Carolyn Grove",
        "suburb": "Athelstone",
        "postcode": "5976",
        "state": "SA",
        "details": "Русский язык, литература, математика, история, география, драма, рисование, история искусства, хореография, окружающий мир",
        "hours": "Сб.: 10.00-14.00",
        "full": "16. Русская школа имени А.С.Пушкина при Ассоциации «Давай поговорим»/ Pushkin Russian School  Почтовый адрес: 5 Carolyn Grove, Athelstone, SA, 5976 Эл.почта: vfkant@gmail.com Веб-сайт: www.russianschoolinadelaide.org  Владимир Кантер Русский язык, литература, математика, история, география, драма, рисование, история искусства, хореография, окружающий мир Сб.: 10.00-14.00"
    },
    {
        "name": "Аделаидская Русская Этническая Школа/ Adelaide Russian Ethnic School Inc.",
        "person": "Константин Георгиевич Тодорашко",
        "email": "contact@adelaiderussianschool.org.au",
        "website": "www.ares.org.au",
        "social media": "",
        "address": "PO Box 121",
        "suburb": "Holden Hill",
        "postcode": "5088",
        "state": "SA",
        "details": "Русский язык, мировая литература, математика, история, география, художественное творчество, музыкальное творчество, хореография, развитие, окружающий мир. Индивидуальные занятия с логопедом, Подготовка и прием экзамена SACE по русскому языку, шахматы, уроки самообороны (тэйквондо).",
        "hours": "Сб.: 9.30-15.00",
        "full": "17. Аделаидская Русская Этническая Школа/ Adelaide Russian Ethnic School Inc.  Почтовый адрес: PO Box 121, Holden Hill, SA 5088 Эл.почта: contact@adelaiderussianschool.org.au Веб-сайт: www.ares.org.au  Константин Георгиевич Тодорашко Русский язык, мировая литература, математика, история, география, художественное творчество, музыкальное творчество, хореография, развитие, окружающий мир. Индивидуальные занятия с логопедом, Подготовка и прием экзамена SACE по русскому языку, шахматы, уроки самообороны (тэйквондо). Сб.: 9.30-15.00"
    },
    {
        "name": "Русская Молоканская Школа/ Russian Molokan School Inc",
        "person": "Павел Ледяев",
        "email": "",
        "website": "",
        "social media": "",
        "address": "PO Box 774",
        "suburb": "St Agnes",
        "postcode": "5097",
        "state": "SA",
        "details": "Русский язык, литература, математика, история, география",
        "hours": "Пт.: 18.00-21.00",
        "full": "18. Русская Молоканская Школа/ Russian Molokan School Inc  Почтовый адрес: PO Box 774, St Agnes, SA, 5097  Павел Ледяев Русский язык, литература, математика, история, география Пт.: 18.00-21.00"
    },
    {
        "name": "Русская школа при Церкви пятидесятников/ School of Russian Language",
        "person": "Сергей Кусков",
        "email": "",
        "website": "",
        "social media": "",
        "address": "97 New Street",
        "suburb": "Queenstown",
        "postcode": "5014",
        "state": "SA",
        "details": "Русский язык, география, искусство, занятия по программе начального образования.",
        "hours": "Пт.: 18.00-21.00",
        "full": "19. Русская школа при Церкви пятидесятников/ School of Russian Language  Почтовый адрес: 97 New Street, Queenstown, SA, 5014  Сергей Кусков Русский язык, география, искусство, занятия по программе начального образования. Пт.: 18.00-21.00"
    },
    {
        "name": "Русская школа при Славянской Баптистской Церкви/ Slavic Baptist Church Russian School",
        "person": "Франк Лымарев",
        "email": "",
        "website": "",
        "social media": "",
        "address": "11 Broad Street",
        "suburb": "Queenstown",
        "postcode": "SA",
        "state": "5014",
        "details": "Русский язык, история России, литература, музыка.",
        "hours": "Пт.: 18.00-21.00",
        "full": "20. Русская школа при Славянской Баптистской Церкви/ Slavic Baptist Church Russian School  Почтовый адрес: 11 Broad Street, Queenstown, 5014, SA  Франк Лымарев Русский язык, история России, литература, музыка. Пт.: 18.00-21.00"
    },
    {
        "name": "Русская Школа при Свято-николаевской Церкви/ Russian School of St.Nicholas Parish Russian Orthodox Church",
        "person": "Протоиерей о.Владимир (Федюхин)",
        "email": "",
        "website": "",
        "social media": "",
        "address": "41-42 Greenhill Road",
        "suburb": "Wayville",
        "postcode": "5034",
        "state": "SA",
        "details": "Русский язык, литература, перевод, история России, география России, закон Божий, пение, музыка, балалайка",
        "hours": "Сб.: 9.00-13.00",
        "full": "21. Русская Школа при Свято-николаевской Церкви/ Russian School of St.Nicholas Parish Russian Orthodox Church  Почтовый адрес: 41-42 Greenhill Road, Wayville, SA, 5034  Протоиерей о.Владимир (Федюхин) Русский язык, литература, перевод, история России, география России, закон Божий, пение, музыка, балалайка Сб.: 9.00-13.00"
    },
    {
        "name": "Свято-Серафимовская Русская школа/ St.Seraphim Russian School",
        "person": "Протоиерей о.Гавриил (Макаров)",
        "email": "fr.gabriel.makarov@rocr.org.au",
        "website": "www.russianschool.org.au",
        "social media": "",
        "address": "60 Hawthorn street",
        "suburb": "Woolloongabba",
        "postcode": "4102",
        "state": "QLD",
        "details": "Русский язык, русская литература, история России, изобразительное искусство, русское народное творчество, шахматы, математика.",
        "hours": "Сб.: 9.00-13.00; Пн.: 7.00-20.00",
        "full": "22. Свято-Серафимовская Русская школа/ St.Seraphim Russian School  Почтовый адрес: 60 Hawthorn street, Woolloongabba, QLD, 4102 Эл.почта: fr.gabriel.makarov@rocr.org.au Веб-сайт: russianschool.org.au  Протоиерей о.Гавриил (Макаров) Русский язык, русская литература, история России, изобразительное искусство, русское народное творчество, шахматы, математика.  Сб.: 9.00-13.00; Пн.: 7.00-20.00"
    },
    {
        "name": "Свято-Николаевская Прицерковная Школа/ St Nicholas Parish School, Brisbane",
        "person": "Протоиерей о.Гавриил (Макаров)",
        "email": "fr.gabriel.makarov@rocr.org.au",
        "website": "",
        "social media": "",
        "address": "114 Woodlands Dr",
        "suburb": "Rochedale South",
        "postcode": "4123",
        "state": "QLD",
        "details": "Закон Божий, русский язык, пение.",
        "hours": "Вт.: 16.30-19.30",
        "full": "23. Свято-Николаевская Прицерковная Школа/ St Nicholas Parish School, Brisbane  Почтовый адрес: 114 Woodlands Dr , Rochedale South, QLD, 4123 Эл.почта: fr.gabriel.makarov@rocr.org.au  Протоиерей о.Гавриил (Макаров) Закон Божий, русский язык, пение. Вт.: 16.30-19.30"
    },
    {
        "name": "Русская школа \"Ромашка\"",
        "person": "Овчинников Виктор Анатольевич",
        "email": "info@schoolromashka.com.au",
        "website": "",
        "social media": "",
        "address": "6 Lawson Street",
        "suburb": "Southport",
        "postcode": "Queensland 4215",
        "state": "Gold Coast",
        "details": "Русский язык, история России, литература",
        "hours": "Сб. 9.00  -12.00, Вс. 9.00 - 12.15.",
        "full": "24 Русская школа \"Ромашка\"  Почтовый адрес: 6 Lawson Street,  Southport, Gold Coast, Queensland 4215, Эл.почта:  info@schoolromashka.com.au Тел: 0431 985 078  Овчинников Виктор Анатольевич Русский язык, история России, литература Сб. 9.00  -12.00, Вс. 9.00 - 12.15."
    },
    {
        "name": "Русская школа имени Святого князя Андрея Боголюбского при Свято-Покровском Храме РПЦ МП",
        "person": "Светлана Барская",
        "email": "admin@blacktownrussianschool.org.au",
        "website": "",
        "social media": "",
        "address": "240 Bungarribee Road",
        "suburb": "Blacktown",
        "postcode": "2148",
        "state": "NSW",
        "details": "Закон Божий, история России, Мировая история, русский язык, русская литература, география, театр.",
        "hours": "Сб.: 8.35-13.50",
        "full": "25 Русская школа имени Святого князя Андрея Боголюбского при Свято-Покровском Храме РПЦ МП  Почтовый адрес: 240 Bungarribee Road, Blacktown, NSW, 2148 Эл.почта: admin@blacktownrussianschool.org.au  Светлана Барская Закон Божий, история России, Мировая история, русский язык, русская литература, география, театр. Сб.: 8.35-13.50"
    },
    {
        "name": "Школа Святого Александра Невского в Хоумбуше",
        "person": "Николай Олегович Максимов",
        "email": "russianschool@tpg.com.au",
        "website": "www.russianschoolsydney.org",
        "social media": "",
        "address": "PO Box 4130",
        "suburb": "Homebush South",
        "postcode": "2140",
        "state": "NSW",
        "details": "Закон Божий, история и география России, русский язык, русская литература, перевод, пение, драма, танец.",
        "hours": "Сб.: 8.35-13.50",
        "full": "26. Школа Святого Александра Невского в Хоумбуше  Почтовый адрес: PO Box 4130, Homebush South, NSW, 2140 Эл.почта: russianschool@tpg.com.au Веб-сайт: www.russianschoolsydney.org  Николай Олегович Максимов Закон Божий, история и география России, русский язык, русская литература, перевод, пение, драма, танец. Сб.: 8.35-13.50"
    },
    {
        "name": "Русская Школа в Марубре",
        "person": "Надежда Алексеевна Сазонова",
        "email": "contact@russianschool.com.au",
        "website": "www.russianschool.com.au",
        "social media": "",
        "address": "12/254 Pacific Hwy",
        "suburb": "Lindfield",
        "postcode": "2070",
        "state": "NSW",
        "details": "Русский язык, русская литература, развитие речи, русская культура, основы истории и географии России, музыкальная культура, драма.",
        "hours": "Вс.: 9.30-13.15; Вт.: 10.00-12.00",
        "full": "27. Русская Школа в Марубре  Почтовый адрес: 12/254 Pacific Hwy, Lindfield, NSW, 2070 Эл.почта: contact@russianschool.com.au Веб-сайт: www.russianschool.com.au  Надежда Алексеевна Сазонова Русский язык, русская литература, развитие речи, русская культура, основы истории и географии России, музыкальная культура, драма. Вс.: 9.30-13.15; Вт.: 10.00-12.00"
    },
    {
        "name": "Епархиальная школа русского языка имени Святого Александра Невского при Кафедральном Соборе Святых Апостолов Петра и Павла",
        "person": "Протоиерей, о.Георгий Лапардин",
        "email": "frglap@bigpond.com",
        "website": "",
        "social media": "",
        "address": "7 Vernon St",
        "suburb": "Strathfield",
        "postcode": "2135",
        "state": "NSW",
        "details": "Русский язык, закон Божий, русская литература, география России, история России, развитие речи, пение, театр.",
        "hours": "Сб.: 9.00-13.40",
        "full": "28. Епархиальная школа русского языка имени Святого Александра Невского при Кафедральном Соборе Святых Апостолов Петра и Павла  Почтовый адрес: 7, Vernon St, Strathfield, NSW, 2135 Эл.почта: frglap@bigpond.com  Протоиерей, о.Георгий Лапардин Русский язык, закон Божий, русская литература, география России, история России, развитие речи, пение, театр. Сб.: 9.00-13.40"
    },
    {
        "name": "Свято-Николаевская школа в Сиднее",
        "person": "Ирина Борисовна Евстигнеева-Райан",
        "email": "iryan@fjc.net.au",
        "website": "www.russkayashkola.com.au",
        "social media": "",
        "address": "FJC 53 Martin Pl.",
        "suburb": "Sydney",
        "postcode": "2000",
        "state": "NSW",
        "details": "Закон Божий, русский язык, русская литература, история России, география России, история русской культуры, перевод, чтение, пение.",
        "hours": "Пт.: 17.30-21.15",
        "full": "29. Свято-Николаевская школа в Сиднее  Почтовый адрес: FJC 53, Martin Pl., Sydney, NSW, 2000 Эл.почта: iryan@fjc.net.au Веб-сайт: www.russkayashkola.com.au  Ирина Борисовна Евстигнеева-Райан Закон Божий, русский язык, русская литература, история России, география России, история русской культуры, перевод, чтение, пение. Пт.: 17.30-21.15"
    },
    {
        "name": "Школа имени Великомученика и Целителя Пантелеимона при Покровском Храме в Кабраматте",
        "person": "Протоиерей о.Борис Игнатьевский",
        "email": "",
        "website": "www.cabrapokrov.org",
        "social media": "",
        "address": "13 Regent Street",
        "suburb": "Berala",
        "postcode": "2141",
        "state": "NSW",
        "details": "Закон Божий, русский язык, русская литература, русское художественное слово (драма), развитие речи, риторика, рисование, история, география, пение, танцы.",
        "hours": "Сб.: 9.00-13.30",
        "full": "30. Школа имени Великомученика и Целителя Пантелеимона при Покровском Храме в Кабраматте  Почтовый адрес: 13 Regent Street, Berala, NSW, 2141 Веб-сайт: www.cabrapokrov.org  Протоиерей о.Борис Игнатьевский Закон Божий, русский язык, русская литература, русское художественное слово (драма), развитие речи, риторика, рисование, история, география, пение, танцы. Сб.: 9.00-13.30"
    },
    {
        "name": "Открытая школа при департаменте образования НЮУ «Open High School»",
        "person": "Мария Владимировна Лобызина",
        "email": "svetlana.krestovsky@education.nsw.gov.au",
        "website": "",
        "social media": "",
        "address": "20 Conder street",
        "suburb": "Burwood",
        "postcode": "2134",
        "state": "NSW",
        "details": "Русский язык для 9-12 классов.",
        "hours": "Сб.: 9:00-12.30",
        "full": "31. Открытая школа при департаменте образования НЮУ «Open High School»  Почтовый адрес: 20 Conder street, Burwood, NSW, 2134 Эл.почта: svetlana.krestovsky@education.nsw.gov.au  Мария Владимировна Лобызина Русский язык для 9-12 классов. Сб.: 9:00-12.30"
    },
    {
        "name": "Церковно-приходская школа при Благовещенско-Успенском Старообрядческом Храме в Лидкомбе/ Holy Annunciation-Assumption of Old Russian Orthodox School of Russia",
        "person": "Протоиерей о.Тимофей (Овчинников)",
        "email": "",
        "website": "",
        "social media": "",
        "address": "58 Vaughan Street",
        "suburb": "Lidcombe",
        "postcode": "2141",
        "state": "NSW",
        "details": "Русский язык, русская литература, русское художественное слово, закон Божий.",
        "hours": "Пн.: 9:00-12.30",
        "full": "32.  Церковно-приходская школа при Благовещенско-Успенском Старообрядческом Храме в Лидкомбе/ Holy Annunciation-Assumption of Old Russian Orthodox School of Russia   Почтовый адрес: 58 Vaughan Street, Lidcombe, NSW, 2141  Протоиерей о.Тимофей (Овчинников) Русский язык, русская литература, русское художественное слово, закон Божий.  Пн.: 9:00-12.30"
    },
    {
        "name": "Школа Русского языка имени Св.Архангела Михаила",
        "person": "Любовь Сергеевна Светлова",
        "email": "",
        "website": "",
        "social media": "",
        "address": "4 Knight Avenue",
        "suburb": "Kings Langley",
        "postcode": "2147",
        "state": "NSW",
        "details": "Русский язык и литература, история, география, перевод.",
        "hours": "Сб.: 9:00-12.30",
        "full": "33. Школа Русского языка имени Св.Архангела Михаила  Почтовый адрес: 4 Knight Avenue, Kings Langley, NSW, 2147  Любовь Сергеевна Светлова  Русский язык и литература, история, география, перевод.   Сб.: 9:00-12.30"
    },
    {
        "name": "Школа Им. Святого Георгия Победоносца/ St.George School of Russian Association Incorporation",
        "person": "Людмила Станиславовна Юракова",
        "email": "info1@denastherapy.com.au",
        "website": "www.stgeorgerussianschool.org.au",
        "social media": "",
        "address": "9 Verdun Pl.",
        "suburb": "Engadine",
        "postcode": "2233",
        "state": "NSW",
        "details": "Закон Божий, русский язык и литература, окружающий мир, география, музыка, пение, рисование, труд.",
        "hours": "Сб.: 9:30-14:00",
        "full": "34.  Школа Им. Святого Георгия Победоносца/ St.George School of Russian Association Incorporation   Почтовый адрес: 9 Verdun Pl., Engadine, NSW, 2233 Эл.почта: info1@denastherapy.com.au Веб-сайт: www.stgeorgerussianschool.org.au  Людмила Станиславовна Юракова Закон Божий, русский язык и литература, окружающий мир, география, музыка, пение, рисование, труд.  Сб.: 9:30-14:00"
    },
    {
        "name": "Школа им. Святого Серафима/ St.Seraphim Hornsby Russian Community School",
        "person": "Дурягин Павел Николаевич",
        "email": "info@hornsbyrussianschool.org.au",
        "website": "www.hornsbyrussianschool.org.au",
        "social media": "",
        "address": "Pierre Cl",
        "suburb": "Mt Colah",
        "postcode": "2079",
        "state": "NSW",
        "details": "Русский язык, литература, естествознание, творчество, развитие речи, классы развития речи (для детей изучающих русский как второй язык), Закон Божий (факультативно).",
        "hours": "Вс.: 14:00-18:00",
        "full": "35. Школа им. Святого Серафима/ St.Seraphim Hornsby Russian Community School  Почтовый адрес: Pierre Cl, Mt Colah, NSW, 2079 Эл.почта: info@hornsbyrussianschool.org.au Веб-сайт: www.hornsbyrussianschool.org.au  Дурягин Павел Николаевич Русский язык, литература, естествознание, творчество, развитие речи, классы развития речи (для детей изучающих русский как второй язык), Закон Божий (факультативно).  Вс.: 14:00-18:00"
    },
    {
        "name": "Школа им Св.Благоверного Князя Андрея Боголюбского",
        "person": "Руслан Вадимович Шаймиев",
        "email": "admin@blacktownrussianschool.org.au",
        "website": "www.blacktownrussianschool.org.au",
        "social media": "",
        "address": "Bali Drive",
        "suburb": "Quakers Hill",
        "postcode": "2763",
        "state": "NSW",
        "details": "Русский язык, литература, естествознание, творчество, развитие речи, классы развития речи.",
        "hours": "Вс.: 14:00-18:00",
        "full": "36. Школа им Св.Благоверного Князя Андрея Боголюбского  Почтовый адрес: Bali Drive, Quakers Hill, NSW, 2763 Эл.почта: admin@blacktownrussianschool.org.au Веб-сайт: www.blacktownrussianschool.org.au  Руслан Вадимович Шаймиев Русский язык, литература, естествознание, творчество, развитие речи, классы развития речи.  Вс.: 14:00-18:00"
    },
    {
        "name": "Русская школа «Гармония»/ Harmony Russian School of Sydney Inc.",
        "person": "Ирина Анатольевна Гудхью",
        "email": "irgoodhew@gmail.com",
        "website": "www.sydneyrussianschool.com.au",
        "social media": "",
        "address": "6 Berrige Road",
        "suburb": "Bellevue Hill",
        "postcode": "2023",
        "state": "NSW",
        "details": "Русский язык, литература, естествознание, творчество, развитие речи.",
        "hours": "Сб.: 9:30-15:00",
        "full": "37. Русская школа «Гармония»/ Harmony Russian School of Sydney Inc.  Почтовый адрес: 6 Berrige Road, Bellevue Hill, NSW, 2023 Эл.почта: irgoodhew@gmail.com Веб-сайт: www.sydneyrussianschool.com.au  Ирина Анатольевна Гудхью Русский язык, литература, естествознание, творчество, развитие речи.  Сб.: 9:30-15:00"
    },
    {
        "name": "Детская академия «Пеночка»",
        "person": "Елена Николаевна Петрова",
        "email": "russian.telemost@gmail.com",
        "website": "",
        "social media": "",
        "address": "25 Alice street",
        "suburb": "Lakemba",
        "postcode": "2195",
        "state": "NSW",
        "details": "Русский язык, история Россия. Развивающие игры для детей (младшая группа) и подготовка школьников.",
        "hours": "Дистан-ционное обучение",
        "full": "38. Детская академия «Пеночка»  Почтовый адрес: 25 Alice street, Lakemba, NSW, 2195 Эл.почта: russian.telemost@gmail.com  Елена Николаевна Петрова Русский язык, история Россия. Развивающие игры для детей (младшая группа) и подготовка школьников.  Дистан-ционное обучение"
    },
    {
        "name": "Детский центр «Тип – Топ»»",
        "person": "Марина Снегурова",
        "email": "milonechka@gmail.com",
        "website": "",
        "social media": "",
        "address": "9 Verdun Pl.",
        "suburb": "Engadine",
        "postcode": "2233",
        "state": "NSW",
        "details": "Занимательный русский язык для малышей (с 3 до  8 лет).",
        "hours": "Сб.: 15.00-17.00",
        "full": "39.  Детский центр «Тип – Топ»»  Почтовый адрес: 9 Verdun Pl., Engadine, NSW, 2233 Эл.почта: milonechka@gmail.com  Марина Снегурова Занимательный русский язык для малышей (с 3 до  8 лет).  Сб.: 15.00-17.00"
    },
    {
        "name": "Школа русского языка LinguaPlay Sydney",
        "person": "Ильвира Сафиуллина-Грум",
        "email": "ilvira.groom@gmail.com",
        "website": "www.linguaplaysydney.com.au",
        "social media": "",
        "address": "10 Manning Str.",
        "suburb": "Balgowlah North",
        "postcode": "2093",
        "state": "NSW",
        "details": "Русский язык, развитие речи, рисование.",
        "hours": "Сб.: 9.00-12.00",
        "full": "40. Школа русского языка LinguaPlay Sydney  Почтовый адрес: 10 Manning Str. Balgowlah North 2093, NSW Эл.почта: ilvira.groom@gmail.com Веб-сайт: www.linguaplaysydney.com.au Тел: 0428758090  Ильвира Сафиуллина-Грум Русский язык, развитие речи, рисование.  Сб.: 9.00-12.00"
    },
    {
        "name": "Студия Детского развития \"Матрёшка\"",
        "person": "Наталья Бестужева, Наталья Варламова",
        "email": "aumatreshka@gmail.com",
        "website": "www.aumatreshka.com",
        "social media": "",
        "address": "66B Illawong Ave",
        "suburb": "Penrith",
        "postcode": "2750",
        "state": "NSW",
        "details": "Русский язык, литература. развитие речи, исторический, георафический блоки тем, обществознание, использование системы Монтессори.",
        "hours": "Пн.: 4.30-18.00 Вт.: 9.30-12.30 Сб.: 9.30-1.30",
        "full": "41. Студия Детского развития \"Матрёшка\"  Адрес: 66B Illawong Ave North Penrith Community Centre, Penrith, New South Wales 2750 Почтовый адрес: 20 Robertswood Ave Blaxland NSW 2774 Эл.почта: aumatreshka@gmail.com Веб-cайт:  http://www.aumatreshka.com   Наталья Бестужева, Наталья Варламова  Русский язык, литература. развитие речи, исторический, георафический блоки тем, обществознание, использование системы Монтессори.  Пн.: 4.30-18.00 Вт.: 9.30-12.30 Сб.: 9.30-1.30"
    },
    {
        "name": "Тасманийская русская этническая школа",
        "person": "Елена Каминская",
        "email": "helenkam@live.com.au",
        "website": "",
        "social media": "",
        "address": "17 Alfred’s Garden",
        "suburb": "Kingston",
        "postcode": "7050",
        "state": "TAS",
        "details": "Русский язык, развитие речи, музыка и драма.",
        "hours": "Чт.: 16:00-8:00; Сб.: 13.00-16:00",
        "full": "42. Тасманийская русская этническая школа  Почтовый адрес: 17 Alfred’s Garden, Kingston, TAS, 7050 Эл.почта: helenkam@live.com.au  Елена Каминская  Русский язык, развитие речи, музыка и драма.   Чт.: 16:00-8:00; Сб.: 13.00-16:00"
    }
]